[{"id": 12, "lat": 59.932, "lon": 30.36, "title": "2-комнатная квартира, 48 м²", "price": 6500000.0, "market_price": 9800000.0, "discount_pct": 33.7, "area": 48.0, "rooms": 2, "status": "active", "type": "apartment", "publish_date": "2026-07-05", "source": "torgi_gov", "url": "https://torgi.gov.ru/new/public/lots/lot/demo-0012"}, {"id": 6, "lat": 55.677, "lon": 37.264, "title": "Жилой дом, 180 м²", "price": 15000000.0, "market_price": 22000000.0, "discount_pct": 31.8, "area": 180.0, "rooms": 5, "status": "active", "type": "house", "publish_date": "2026-07-05", "source": "torgi_gov", "url": "https://torgi.gov.ru/new/public/lots/lot/demo-0006"}, {"id": 3, "lat": 55.805, "lon": 37.635, "title": "2-комнатная квартира, 54.1 м²", "price": 9800000.0, "market_price": 14500000.0, "discount_pct": 32.4, "area": 54.1, "rooms": 2, "status": "upcoming", "type": "apartment", "publish_date": "2026-07-04", "source": "torgi_gov", "url": "https://torgi.gov.ru/new/public/lots/lot/demo-0003"}, {"id": 9, "lat": 55.82, "lon": 37.08, "title": "Земельный участок 20 соток под ИЖС", "price": 4800000.0, "market_price": 7200000.0, "discount_pct": 33.3, "area": 2000.0, "rooms": null, "status": "active", "type": "land", "publish_date": "2026-07-03", "source": "torgi_gov", "url": "https://torgi.gov.ru/new/public/lots/lot/demo-0009"}, {"id": 5, "lat": 55.71, "lon": 37.58, "title": "4-комнатная квартира, 112 м²", "price": 18500000.0, "market_price": 27000000.0, "discount_pct": 31.5, "area": 112.0, "rooms": 4, "status": "upcoming", "type": "apartment", "publish_date": "2026-07-01", "source": "torgi_gov", "url": "https://torgi.gov.ru/new/public/lots/lot/demo-0005"}, {"id": 7, "lat": 55.82, "lon": 37.33, "title": "Часть жилого дома, 95 м²", "price": 8500000.0, "market_price": 12800000.0, "discount_pct": 33.6, "area": 95.0, "rooms": 3, "status": "upcoming", "type": "house", "publish_date": "2026-06-30", "source": "torgi_gov", "url": "https://torgi.gov.ru/new/public/lots/lot/demo-0007"}, {"id": 17, "lat": 56.838, "lon": 60.605, "title": "2-комнатная квартира, 52 м²", "price": 3500000.0, "market_price": 5200000.0, "discount_pct": 32.7, "area": 52.0, "rooms": 2, "status": "active", "type": "apartment", "publish_date": "2026-06-28", "source": "torgi_gov", "url": "https://torgi.gov.ru/new/public/lots/lot/demo-0017"}, {"id": 14, "lat": 60.052, "lon": 30.33, "title": "Квартира-студия, 30 м²", "price": 3800000.0, "market_price": 5500000.0, "discount_pct": 30.9, "area": 30.0, "rooms": 0, "status": "upcoming", "type": "apartment", "publish_date": "2026-06-28", "source": "torgi_gov", "url": "https://torgi.gov.ru/new/public/lots/lot/demo-0014"}, {"id": 15, "lat": 55.789, "lon": 49.115, "title": "1-комнатная квартира, 42 м²", "price": 3200000.0, "market_price": 4800000.0, "discount_pct": 33.3, "area": 42.0, "rooms": 1, "status": "active", "type": "apartment", "publish_date": "2026-06-27", "source": "torgi_gov", "url": "https://torgi.gov.ru/new/public/lots/lot/demo-0015"}, {"id": 4, "lat": 55.768, "lon": 37.682, "title": "Студия, 25.6 м²", "price": 6200000.0, "market_price": 8500000.0, "discount_pct": 27.1, "area": 25.6, "rooms": 0, "status": "upcoming", "type": "apartment", "publish_date": "2026-06-25", "source": "torgi_gov", "url": "https://torgi.gov.ru/new/public/lots/lot/demo-0004"}, {"id": 2, "lat": 55.7522, "lon": 37.5915, "title": "1-комнатная квартира, 38.2 м²", "price": 8900000.0, "market_price": 12100000.0, "discount_pct": 26.4, "area": 38.2, "rooms": 1, "status": "upcoming", "type": "apartment", "publish_date": "2026-06-24", "source": "torgi_gov", "url": "https://torgi.gov.ru/new/public/lots/lot/demo-0002"}, {"id": 8, "lat": 55.54, "lon": 37.52, "title": "Земельный участок 10 соток", "price": 3200000.0, "market_price": 5000000.0, "discount_pct": 36.0, "area": 1000.0, "rooms": null, "status": "active", "type": "land", "publish_date": "2026-06-20", "source": "torgi_gov", "url": "https://torgi.gov.ru/new/public/lots/lot/demo-0008"}, {"id": 19, "lat": 55.762, "lon": 37.638, "title": "Комната 12 м² в коммунальной квартире", "price": 2800000.0, "market_price": 4200000.0, "discount_pct": 33.3, "area": 12.0, "rooms": 1, "status": "upcoming", "type": "room", "publish_date": "2026-06-19", "source": "torgi_gov", "url": "https://torgi.gov.ru/new/public/lots/lot/demo-0019"}, {"id": 16, "lat": 55.77, "lon": 49.14, "title": "Земельный участок 8 соток", "price": 1800000.0, "market_price": 2800000.0, "discount_pct": 35.7, "area": 800.0, "rooms": null, "status": "upcoming", "type": "land", "publish_date": "2026-06-19", "source": "torgi_gov", "url": "https://torgi.gov.ru/new/public/lots/lot/demo-0016"}, {"id": 1, "lat": 55.7558, "lon": 37.6173, "title": "3-комнатная квартира, 75.4 м²", "price": 12500000.0, "market_price": 18200000.0, "discount_pct": 31.3, "area": 75.4, "rooms": 3, "status": "upcoming", "type": "apartment", "publish_date": "2026-06-19", "source": "torgi_gov", "url": "https://torgi.gov.ru/new/public/lots/lot/demo-0001"}, {"id": 20, "lat": 45.035, "lon": 38.98, "title": "Нежилое помещение 85 м²", "price": 5500000.0, "market_price": 8000000.0, "discount_pct": 31.3, "area": 85.0, "rooms": null, "status": "upcoming", "type": "commercial", "publish_date": "2026-06-18", "source": "torgi_gov", "url": "https://torgi.gov.ru/new/public/lots/lot/demo-0020"}, {"id": 10, "lat": 55.757, "lon": 37.635, "title": "Офисное помещение, 65 м²", "price": 11000000.0, "market_price": 16500000.0, "discount_pct": 33.3, "area": 65.0, "rooms": null, "status": "upcoming", "type": "commercial", "publish_date": "2026-06-18", "source": "torgi_gov", "url": "https://torgi.gov.ru/new/public/lots/lot/demo-0010"}, {"id": 13, "lat": 59.926, "lon": 30.347, "title": "3-комнатная квартира, 72 м²", "price": 8200000.0, "market_price": 12500000.0, "discount_pct": 34.4, "area": 72.0, "rooms": 3, "status": "active", "type": "apartment", "publish_date": "2026-06-14", "source": "torgi_gov", "url": "https://torgi.gov.ru/new/public/lots/lot/demo-0013"}, {"id": 18, "lat": 55.03, "lon": 82.92, "title": "Гараж, 24 м²", "price": 350000.0, "market_price": 550000.0, "discount_pct": 36.4, "area": 24.0, "rooms": null, "status": "active", "type": "garage", "publish_date": "2026-06-13", "source": "torgi_gov", "url": "https://torgi.gov.ru/new/public/lots/lot/demo-0018"}, {"id": 11, "lat": 55.765, "lon": 37.605, "title": "Торговое помещение, 120 м²", "price": 25000000.0, "market_price": 38000000.0, "discount_pct": 34.2, "area": 120.0, "rooms": null, "status": "upcoming", "type": "commercial", "publish_date": "2026-06-07", "source": "torgi_gov", "url": "https://torgi.gov.ru/new/public/lots/lot/demo-0011"}]